{"ast":null,"code":"var _jsxFileName = \"/home/dardanr/lab2/frontend/src/components/placeholders.js\";\nimport React from 'react';\nimport { motion } from 'framer-motion';\nimport { MapContainer, TileLayer, Marker, Popup } from 'react-leaflet';\nimport 'leaflet/dist/leaflet.css';\nimport L from 'leaflet';\n\n// Fix default icon issue with Leaflet in React\nimport iconUrl from 'leaflet/dist/images/marker-icon.png';\nimport iconShadow from 'leaflet/dist/images/marker-shadow.png';\nimport { jsxDEV as _jsxDEV } from \"react/jsx-dev-runtime\";\nconst DefaultIcon = L.icon({\n  iconUrl,\n  shadowUrl: iconShadow,\n  iconAnchor: [12, 41]\n});\nL.Marker.prototype.options.icon = DefaultIcon;\n\n// Kosovo cities with mock temperatures\nconst kosovoCities = [{\n  name: 'Pristina',\n  lat: 42.6629,\n  lon: 21.1655,\n  temp: 25\n}, {\n  name: 'Peja',\n  lat: 42.6591,\n  lon: 20.2883,\n  temp: 23\n}, {\n  name: 'Gjakova',\n  lat: 42.3803,\n  lon: 20.4300,\n  temp: 24\n}, {\n  name: 'Mitrovica',\n  lat: 42.8900,\n  lon: 20.8667,\n  temp: 22\n}, {\n  name: 'Ferizaj',\n  lat: 42.3706,\n  lon: 21.1550,\n  temp: 26\n}, {\n  name: 'Gjilan',\n  lat: 42.4637,\n  lon: 21.4691,\n  temp: 24\n}, {\n  name: 'Prizren',\n  lat: 42.2139,\n  lon: 20.7417,\n  temp: 27\n}, {\n  name: 'Vushtrri',\n  lat: 42.8231,\n  lon: 20.9675,\n  temp: 23\n}, {\n  name: 'Podujeva',\n  lat: 42.9106,\n  lon: 21.1925,\n  temp: 22\n}, {\n  name: 'Suhareka',\n  lat: 42.3586,\n  lon: 20.8250,\n  temp: 25\n}, {\n  name: 'Rahovec',\n  lat: 42.4000,\n  lon: 20.6547,\n  temp: 24\n}, {\n  name: 'Malisheva',\n  lat: 42.4833,\n  lon: 20.7456,\n  temp: 23\n}, {\n  name: 'Drenas',\n  lat: 42.6131,\n  lon: 20.8022,\n  temp: 24\n}, {\n  name: 'Kamenica',\n  lat: 42.5747,\n  lon: 21.5806,\n  temp: 23\n}, {\n  name: 'Dragash',\n  lat: 42.0667,\n  lon: 20.6500,\n  temp: 21\n}];\nconst Placeholder = ({\n  title\n}) => {\n  return /*#__PURE__*/_jsxDEV(motion.div, {\n    initial: {\n      opacity: 0\n    },\n    animate: {\n      opacity: 1\n    },\n    exit: {\n      opacity: 0\n    },\n    children: [/*#__PURE__*/_jsxDEV(\"h1\", {\n      className: \"gradient-text\",\n      children: title\n    }, void 0, false, {\n      fileName: _jsxFileName,\n      lineNumber: 44,\n      columnNumber: 7\n    }, this), /*#__PURE__*/_jsxDEV(\"p\", {\n      children: [\"This is the \", title, \" page. Content coming soon!\"]\n    }, void 0, true, {\n      fileName: _jsxFileName,\n      lineNumber: 45,\n      columnNumber: 7\n    }, this)]\n  }, void 0, true, {\n    fileName: _jsxFileName,\n    lineNumber: 39,\n    columnNumber: 5\n  }, this);\n};\n_c = Placeholder;\nexport const WeatherMap = () => /*#__PURE__*/_jsxDEV(\"div\", {\n  style: {\n    height: '70vh',\n    width: '100%'\n  },\n  children: /*#__PURE__*/_jsxDEV(MapContainer, {\n    center: [42.55, 20.95],\n    zoom: 9,\n    style: {\n      height: '100%',\n      width: '100%',\n      borderRadius: '16px',\n      boxShadow: '0 2px 16px rgba(0,0,0,0.2)'\n    },\n    children: [/*#__PURE__*/_jsxDEV(TileLayer, {\n      attribution: \"\\xA9 <a href=\\\"https://www.openstreetmap.org/copyright\\\">OpenStreetMap</a> contributors\",\n      url: \"https://{s}.tile.openstreetmap.org/{z}/{x}/{y}.png\"\n    }, void 0, false, {\n      fileName: _jsxFileName,\n      lineNumber: 53,\n      columnNumber: 7\n    }, this), kosovoCities.map(city => /*#__PURE__*/_jsxDEV(Marker, {\n      position: [city.lat, city.lon],\n      icon: DefaultIcon,\n      children: /*#__PURE__*/_jsxDEV(Popup, {\n        children: [/*#__PURE__*/_jsxDEV(\"strong\", {\n          children: city.name\n        }, void 0, false, {\n          fileName: _jsxFileName,\n          lineNumber: 60,\n          columnNumber: 13\n        }, this), /*#__PURE__*/_jsxDEV(\"br\", {}, void 0, false, {\n          fileName: _jsxFileName,\n          lineNumber: 60,\n          columnNumber: 41\n        }, this), \"Temperature: \", city.temp, \"\\xB0C\"]\n      }, void 0, true, {\n        fileName: _jsxFileName,\n        lineNumber: 59,\n        columnNumber: 11\n      }, this)\n    }, city.name, false, {\n      fileName: _jsxFileName,\n      lineNumber: 58,\n      columnNumber: 9\n    }, this))]\n  }, void 0, true, {\n    fileName: _jsxFileName,\n    lineNumber: 52,\n    columnNumber: 5\n  }, this)\n}, void 0, false, {\n  fileName: _jsxFileName,\n  lineNumber: 51,\n  columnNumber: 3\n}, this);\n_c2 = WeatherMap;\nexport const Forecast = () => /*#__PURE__*/_jsxDEV(Placeholder, {\n  title: \"Forecast\"\n}, void 0, false, {\n  fileName: _jsxFileName,\n  lineNumber: 69,\n  columnNumber: 31\n}, this);\n_c3 = Forecast;\nexport const Analytics = () => /*#__PURE__*/_jsxDEV(Placeholder, {\n  title: \"Analytics\"\n}, void 0, false, {\n  fileName: _jsxFileName,\n  lineNumber: 70,\n  columnNumber: 32\n}, this);\n_c4 = Analytics;\nexport const Settings = () => /*#__PURE__*/_jsxDEV(Placeholder, {\n  title: \"Settings\"\n}, void 0, false, {\n  fileName: _jsxFileName,\n  lineNumber: 71,\n  columnNumber: 31\n}, this);\n_c5 = Settings;\nvar _c, _c2, _c3, _c4, _c5;\n$RefreshReg$(_c, \"Placeholder\");\n$RefreshReg$(_c2, \"WeatherMap\");\n$RefreshReg$(_c3, \"Forecast\");\n$RefreshReg$(_c4, \"Analytics\");\n$RefreshReg$(_c5, \"Settings\");","map":{"version":3,"names":["React","motion","MapContainer","TileLayer","Marker","Popup","L","iconUrl","iconShadow","jsxDEV","_jsxDEV","DefaultIcon","icon","shadowUrl","iconAnchor","prototype","options","kosovoCities","name","lat","lon","temp","Placeholder","title","div","initial","opacity","animate","exit","children","className","fileName","_jsxFileName","lineNumber","columnNumber","_c","WeatherMap","style","height","width","center","zoom","borderRadius","boxShadow","attribution","url","map","city","position","_c2","Forecast","_c3","Analytics","_c4","Settings","_c5","$RefreshReg$"],"sources":["/home/dardanr/lab2/frontend/src/components/placeholders.js"],"sourcesContent":["import React from 'react';\nimport { motion } from 'framer-motion';\nimport { MapContainer, TileLayer, Marker, Popup } from 'react-leaflet';\nimport 'leaflet/dist/leaflet.css';\nimport L from 'leaflet';\n\n// Fix default icon issue with Leaflet in React\nimport iconUrl from 'leaflet/dist/images/marker-icon.png';\nimport iconShadow from 'leaflet/dist/images/marker-shadow.png';\n\nconst DefaultIcon = L.icon({\n  iconUrl,\n  shadowUrl: iconShadow,\n  iconAnchor: [12, 41],\n});\nL.Marker.prototype.options.icon = DefaultIcon;\n\n// Kosovo cities with mock temperatures\nconst kosovoCities = [\n  { name: 'Pristina', lat: 42.6629, lon: 21.1655, temp: 25 },\n  { name: 'Peja', lat: 42.6591, lon: 20.2883, temp: 23 },\n  { name: 'Gjakova', lat: 42.3803, lon: 20.4300, temp: 24 },\n  { name: 'Mitrovica', lat: 42.8900, lon: 20.8667, temp: 22 },\n  { name: 'Ferizaj', lat: 42.3706, lon: 21.1550, temp: 26 },\n  { name: 'Gjilan', lat: 42.4637, lon: 21.4691, temp: 24 },\n  { name: 'Prizren', lat: 42.2139, lon: 20.7417, temp: 27 },\n  { name: 'Vushtrri', lat: 42.8231, lon: 20.9675, temp: 23 },\n  { name: 'Podujeva', lat: 42.9106, lon: 21.1925, temp: 22 },\n  { name: 'Suhareka', lat: 42.3586, lon: 20.8250, temp: 25 },\n  { name: 'Rahovec', lat: 42.4000, lon: 20.6547, temp: 24 },\n  { name: 'Malisheva', lat: 42.4833, lon: 20.7456, temp: 23 },\n  { name: 'Drenas', lat: 42.6131, lon: 20.8022, temp: 24 },\n  { name: 'Kamenica', lat: 42.5747, lon: 21.5806, temp: 23 },\n  { name: 'Dragash', lat: 42.0667, lon: 20.6500, temp: 21 },\n];\n\nconst Placeholder = ({ title }) => {\n  return (\n    <motion.div\n      initial={{ opacity: 0 }}\n      animate={{ opacity: 1 }}\n      exit={{ opacity: 0 }}\n    >\n      <h1 className=\"gradient-text\">{title}</h1>\n      <p>This is the {title} page. Content coming soon!</p>\n    </motion.div>\n  );\n};\n\nexport const WeatherMap = () => (\n  <div style={{ height: '70vh', width: '100%' }}>\n    <MapContainer center={[42.55, 20.95]} zoom={9} style={{ height: '100%', width: '100%', borderRadius: '16px', boxShadow: '0 2px 16px rgba(0,0,0,0.2)' }}>\n      <TileLayer\n        attribution='&copy; <a href=\"https://www.openstreetmap.org/copyright\">OpenStreetMap</a> contributors'\n        url=\"https://{s}.tile.openstreetmap.org/{z}/{x}/{y}.png\"\n      />\n      {kosovoCities.map(city => (\n        <Marker key={city.name} position={[city.lat, city.lon]} icon={DefaultIcon}>\n          <Popup>\n            <strong>{city.name}</strong><br />\n            Temperature: {city.temp}&deg;C\n          </Popup>\n        </Marker>\n      ))}\n    </MapContainer>\n  </div>\n);\n\nexport const Forecast = () => <Placeholder title=\"Forecast\" />;\nexport const Analytics = () => <Placeholder title=\"Analytics\" />;\nexport const Settings = () => <Placeholder title=\"Settings\" />; "],"mappings":";AAAA,OAAOA,KAAK,MAAM,OAAO;AACzB,SAASC,MAAM,QAAQ,eAAe;AACtC,SAASC,YAAY,EAAEC,SAAS,EAAEC,MAAM,EAAEC,KAAK,QAAQ,eAAe;AACtE,OAAO,0BAA0B;AACjC,OAAOC,CAAC,MAAM,SAAS;;AAEvB;AACA,OAAOC,OAAO,MAAM,qCAAqC;AACzD,OAAOC,UAAU,MAAM,uCAAuC;AAAC,SAAAC,MAAA,IAAAC,OAAA;AAE/D,MAAMC,WAAW,GAAGL,CAAC,CAACM,IAAI,CAAC;EACzBL,OAAO;EACPM,SAAS,EAAEL,UAAU;EACrBM,UAAU,EAAE,CAAC,EAAE,EAAE,EAAE;AACrB,CAAC,CAAC;AACFR,CAAC,CAACF,MAAM,CAACW,SAAS,CAACC,OAAO,CAACJ,IAAI,GAAGD,WAAW;;AAE7C;AACA,MAAMM,YAAY,GAAG,CACnB;EAAEC,IAAI,EAAE,UAAU;EAAEC,GAAG,EAAE,OAAO;EAAEC,GAAG,EAAE,OAAO;EAAEC,IAAI,EAAE;AAAG,CAAC,EAC1D;EAAEH,IAAI,EAAE,MAAM;EAAEC,GAAG,EAAE,OAAO;EAAEC,GAAG,EAAE,OAAO;EAAEC,IAAI,EAAE;AAAG,CAAC,EACtD;EAAEH,IAAI,EAAE,SAAS;EAAEC,GAAG,EAAE,OAAO;EAAEC,GAAG,EAAE,OAAO;EAAEC,IAAI,EAAE;AAAG,CAAC,EACzD;EAAEH,IAAI,EAAE,WAAW;EAAEC,GAAG,EAAE,OAAO;EAAEC,GAAG,EAAE,OAAO;EAAEC,IAAI,EAAE;AAAG,CAAC,EAC3D;EAAEH,IAAI,EAAE,SAAS;EAAEC,GAAG,EAAE,OAAO;EAAEC,GAAG,EAAE,OAAO;EAAEC,IAAI,EAAE;AAAG,CAAC,EACzD;EAAEH,IAAI,EAAE,QAAQ;EAAEC,GAAG,EAAE,OAAO;EAAEC,GAAG,EAAE,OAAO;EAAEC,IAAI,EAAE;AAAG,CAAC,EACxD;EAAEH,IAAI,EAAE,SAAS;EAAEC,GAAG,EAAE,OAAO;EAAEC,GAAG,EAAE,OAAO;EAAEC,IAAI,EAAE;AAAG,CAAC,EACzD;EAAEH,IAAI,EAAE,UAAU;EAAEC,GAAG,EAAE,OAAO;EAAEC,GAAG,EAAE,OAAO;EAAEC,IAAI,EAAE;AAAG,CAAC,EAC1D;EAAEH,IAAI,EAAE,UAAU;EAAEC,GAAG,EAAE,OAAO;EAAEC,GAAG,EAAE,OAAO;EAAEC,IAAI,EAAE;AAAG,CAAC,EAC1D;EAAEH,IAAI,EAAE,UAAU;EAAEC,GAAG,EAAE,OAAO;EAAEC,GAAG,EAAE,OAAO;EAAEC,IAAI,EAAE;AAAG,CAAC,EAC1D;EAAEH,IAAI,EAAE,SAAS;EAAEC,GAAG,EAAE,OAAO;EAAEC,GAAG,EAAE,OAAO;EAAEC,IAAI,EAAE;AAAG,CAAC,EACzD;EAAEH,IAAI,EAAE,WAAW;EAAEC,GAAG,EAAE,OAAO;EAAEC,GAAG,EAAE,OAAO;EAAEC,IAAI,EAAE;AAAG,CAAC,EAC3D;EAAEH,IAAI,EAAE,QAAQ;EAAEC,GAAG,EAAE,OAAO;EAAEC,GAAG,EAAE,OAAO;EAAEC,IAAI,EAAE;AAAG,CAAC,EACxD;EAAEH,IAAI,EAAE,UAAU;EAAEC,GAAG,EAAE,OAAO;EAAEC,GAAG,EAAE,OAAO;EAAEC,IAAI,EAAE;AAAG,CAAC,EAC1D;EAAEH,IAAI,EAAE,SAAS;EAAEC,GAAG,EAAE,OAAO;EAAEC,GAAG,EAAE,OAAO;EAAEC,IAAI,EAAE;AAAG,CAAC,CAC1D;AAED,MAAMC,WAAW,GAAGA,CAAC;EAAEC;AAAM,CAAC,KAAK;EACjC,oBACEb,OAAA,CAACT,MAAM,CAACuB,GAAG;IACTC,OAAO,EAAE;MAAEC,OAAO,EAAE;IAAE,CAAE;IACxBC,OAAO,EAAE;MAAED,OAAO,EAAE;IAAE,CAAE;IACxBE,IAAI,EAAE;MAAEF,OAAO,EAAE;IAAE,CAAE;IAAAG,QAAA,gBAErBnB,OAAA;MAAIoB,SAAS,EAAC,eAAe;MAAAD,QAAA,EAAEN;IAAK;MAAAQ,QAAA,EAAAC,YAAA;MAAAC,UAAA;MAAAC,YAAA;IAAA,OAAK,CAAC,eAC1CxB,OAAA;MAAAmB,QAAA,GAAG,cAAY,EAACN,KAAK,EAAC,6BAA2B;IAAA;MAAAQ,QAAA,EAAAC,YAAA;MAAAC,UAAA;MAAAC,YAAA;IAAA,OAAG,CAAC;EAAA;IAAAH,QAAA,EAAAC,YAAA;IAAAC,UAAA;IAAAC,YAAA;EAAA,OAC3C,CAAC;AAEjB,CAAC;AAACC,EAAA,GAXIb,WAAW;AAajB,OAAO,MAAMc,UAAU,GAAGA,CAAA,kBACxB1B,OAAA;EAAK2B,KAAK,EAAE;IAAEC,MAAM,EAAE,MAAM;IAAEC,KAAK,EAAE;EAAO,CAAE;EAAAV,QAAA,eAC5CnB,OAAA,CAACR,YAAY;IAACsC,MAAM,EAAE,CAAC,KAAK,EAAE,KAAK,CAAE;IAACC,IAAI,EAAE,CAAE;IAACJ,KAAK,EAAE;MAAEC,MAAM,EAAE,MAAM;MAAEC,KAAK,EAAE,MAAM;MAAEG,YAAY,EAAE,MAAM;MAAEC,SAAS,EAAE;IAA6B,CAAE;IAAAd,QAAA,gBACrJnB,OAAA,CAACP,SAAS;MACRyC,WAAW,EAAC,yFAAyF;MACrGC,GAAG,EAAC;IAAoD;MAAAd,QAAA,EAAAC,YAAA;MAAAC,UAAA;MAAAC,YAAA;IAAA,OACzD,CAAC,EACDjB,YAAY,CAAC6B,GAAG,CAACC,IAAI,iBACpBrC,OAAA,CAACN,MAAM;MAAiB4C,QAAQ,EAAE,CAACD,IAAI,CAAC5B,GAAG,EAAE4B,IAAI,CAAC3B,GAAG,CAAE;MAACR,IAAI,EAAED,WAAY;MAAAkB,QAAA,eACxEnB,OAAA,CAACL,KAAK;QAAAwB,QAAA,gBACJnB,OAAA;UAAAmB,QAAA,EAASkB,IAAI,CAAC7B;QAAI;UAAAa,QAAA,EAAAC,YAAA;UAAAC,UAAA;UAAAC,YAAA;QAAA,OAAS,CAAC,eAAAxB,OAAA;UAAAqB,QAAA,EAAAC,YAAA;UAAAC,UAAA;UAAAC,YAAA;QAAA,OAAK,CAAC,iBACrB,EAACa,IAAI,CAAC1B,IAAI,EAAC,OAC1B;MAAA;QAAAU,QAAA,EAAAC,YAAA;QAAAC,UAAA;QAAAC,YAAA;MAAA,OAAO;IAAC,GAJGa,IAAI,CAAC7B,IAAI;MAAAa,QAAA,EAAAC,YAAA;MAAAC,UAAA;MAAAC,YAAA;IAAA,OAKd,CACT,CAAC;EAAA;IAAAH,QAAA,EAAAC,YAAA;IAAAC,UAAA;IAAAC,YAAA;EAAA,OACU;AAAC;EAAAH,QAAA,EAAAC,YAAA;EAAAC,UAAA;EAAAC,YAAA;AAAA,OACZ,CACN;AAACe,GAAA,GAjBWb,UAAU;AAmBvB,OAAO,MAAMc,QAAQ,GAAGA,CAAA,kBAAMxC,OAAA,CAACY,WAAW;EAACC,KAAK,EAAC;AAAU;EAAAQ,QAAA,EAAAC,YAAA;EAAAC,UAAA;EAAAC,YAAA;AAAA,OAAE,CAAC;AAACiB,GAAA,GAAlDD,QAAQ;AACrB,OAAO,MAAME,SAAS,GAAGA,CAAA,kBAAM1C,OAAA,CAACY,WAAW;EAACC,KAAK,EAAC;AAAW;EAAAQ,QAAA,EAAAC,YAAA;EAAAC,UAAA;EAAAC,YAAA;AAAA,OAAE,CAAC;AAACmB,GAAA,GAApDD,SAAS;AACtB,OAAO,MAAME,QAAQ,GAAGA,CAAA,kBAAM5C,OAAA,CAACY,WAAW;EAACC,KAAK,EAAC;AAAU;EAAAQ,QAAA,EAAAC,YAAA;EAAAC,UAAA;EAAAC,YAAA;AAAA,OAAE,CAAC;AAACqB,GAAA,GAAlDD,QAAQ;AAAA,IAAAnB,EAAA,EAAAc,GAAA,EAAAE,GAAA,EAAAE,GAAA,EAAAE,GAAA;AAAAC,YAAA,CAAArB,EAAA;AAAAqB,YAAA,CAAAP,GAAA;AAAAO,YAAA,CAAAL,GAAA;AAAAK,YAAA,CAAAH,GAAA;AAAAG,YAAA,CAAAD,GAAA","ignoreList":[]},"metadata":{},"sourceType":"module","externalDependencies":[]}